[
  {
    "name": "Hartsfield Jackson Atlanta Intl",
    "city": "Atlanta",
    "country": "United States",
    "iata_code": "ATL",
    "_geoloc": {
      "lat": 33.636719,
      "lng": -84.428067
    },
    "links_count": 1826,
    "objectID": "3682"
  },
  {
    "name": "Chicago Ohare Intl",
    "city": "Chicago",
    "country": "United States",
    "iata_code": "ORD",
    "_geoloc": {
      "lat": 41.978603,
      "lng": -87.904842
    },
    "links_count": 1108,
    "objectID": "3830"
  },
  {
    "name": "Heathrow",
    "city": "London",
    "country": "United Kingdom",
    "iata_code": "LHR",
    "_geoloc": {
      "lat": 51.4775,
      "lng": -0.461389
    },
    "links_count": 1051,
    "objectID": "507"
  },
  {
    "name": "Charles De Gaulle",
    "city": "Paris",
    "country": "France",
    "iata_code": "CDG",
    "_geoloc": {
      "lat": 49.012779,
      "lng": 2.55
    },
    "links_count": 1041,
    "objectID": "1382"
  },
  {
    "name": "Los Angeles Intl",
    "city": "Los Angeles",
    "country": "United States",
    "iata_code": "LAX",
    "_geoloc": {
      "lat": 33.942536,
      "lng": -118.408075
    },
    "links_count": 990,
    "objectID": "3484"
  },
  {
    "name": "John F Kennedy Intl",
    "city": "New York",
    "country": "United States",
    "iata_code": "JFK",
    "_geoloc": {
      "lat": 40.639751,
      "lng": -73.778925
    },
    "links_count": 911,
    "objectID": "3797"
  },
  {
    "name": "Schiphol",
    "city": "Amsterdam",
    "country": "Netherlands",
    "iata_code": "AMS",
    "_geoloc": {
      "lat": 52.308613,
      "lng": 4.763889
    },
    "links_count": 903,
    "objectID": "580"
  },
  {
    "name": "Changi Intl",
    "city": "Singapore",
    "country": "Singapore",
    "iata_code": "SIN",
    "_geoloc": {
      "lat": 1.350189,
      "lng": 103.994433
    },
    "links_count": 820,
    "objectID": "3316"
  },
  {
    "name": "Miami Intl",
    "city": "Miami",
    "country": "United States",
    "iata_code": "MIA",
    "_geoloc": {
      "lat": 25.79325,
      "lng": -80.290556
    },
    "links_count": 734,
    "objectID": "3576"
  },
  {
    "name": "Franz Josef Strauss",
    "city": "Munich",
    "country": "Germany",
    "iata_code": "MUC",
    "_geoloc": {
      "lat": 48.353783,
      "lng": 11.786086
    },
    "links_count": 728,
    "objectID": "346"
  },
  {
    "name": "Hong Kong Intl",
    "city": "Hong Kong",
    "country": "Hong Kong",
    "iata_code": "HKG",
    "_geoloc": {
      "lat": 22.308919,
      "lng": 113.914603
    },
    "links_count": 710,
    "objectID": "3077"
  },
  {
    "name": "Dubai Intl",
    "city": "Dubai",
    "country": "United Arab Emirates",
    "iata_code": "DXB",
    "_geoloc": {
      "lat": 25.252778,
      "lng": 55.364444
    },
    "links_count": 710,
    "objectID": "2188"
  },
  {
    "name": "Gatwick",
    "city": "London",
    "country": "United Kingdom",
    "iata_code": "LGW",
    "_geoloc": {
      "lat": 51.148056,
      "lng": -0.190278
    },
    "links_count": 708,
    "objectID": "502"
  },
  {
    "name": "Fiumicino",
    "city": "Rome",
    "country": "Italy",
    "iata_code": "FCO",
    "_geoloc": {
      "lat": 41.804475,
      "lng": 12.250797
    },
    "links_count": 662,
    "objectID": "1555"
  },
  {
    "name": "Barajas",
    "city": "Madrid",
    "country": "Spain",
    "iata_code": "MAD",
    "_geoloc": {
      "lat": 40.493556,
      "lng": -3.566764
    },
    "links_count": 661,
    "objectID": "1229"
  },
  {
    "name": "Suvarnabhumi Intl",
    "city": "Bangkok",
    "country": "Thailand",
    "iata_code": "BKK",
    "_geoloc": {
      "lat": 13.681108,
      "lng": 100.747283
    },
    "links_count": 656,
    "objectID": "3885"
  },
  {
    "name": "Lester B Pearson Intl",
    "city": "Toronto",
    "country": "Canada",
    "iata_code": "YYZ",
    "_geoloc": {
      "lat": 43.677223,
      "lng": -79.630556
    },
    "links_count": 636,
    "objectID": "193"
  },
  {
    "name": "Schwechat",
    "city": "Vienna",
    "country": "Austria",
    "iata_code": "VIE",
    "_geoloc": {
      "lat": 48.110278,
      "lng": 16.569722
    },
    "links_count": 616,
    "objectID": "1613"
  },
  {
    "name": "Narita Intl",
    "city": "Tokyo",
    "country": "Japan",
    "iata_code": "NRT",
    "_geoloc": {
      "lat": 35.764722,
      "lng": 140.386389
    },
    "links_count": 575,
    "objectID": "2279"
  },
  {
    "name": "Kuala Lumpur Intl",
    "city": "Kuala Lumpur",
    "country": "Malaysia",
    "iata_code": "KUL",
    "_geoloc": {
      "lat": 2.745578,
      "lng": 101.709917
    },
    "links_count": 514,
    "objectID": "3304"
  },
  {
    "name": "San Francisco Intl",
    "city": "San Francisco",
    "country": "United States",
    "iata_code": "SFO",
    "_geoloc": {
      "lat": 37.618972,
      "lng": -122.374889
    },
    "links_count": 499,
    "objectID": "3469"
  },
  {
    "name": "Sydney Intl",
    "city": "Sydney",
    "country": "Australia",
    "iata_code": "SYD",
    "_geoloc": {
      "lat": -33.946111,
      "lng": 151.177222
    },
    "links_count": 410,
    "objectID": "3361"
  },
  {
    "name": "Orly",
    "city": "Paris",
    "country": "France",
    "iata_code": "ORY",
    "_geoloc": {
      "lat": 48.725278,
      "lng": 2.359444
    },
    "links_count": 404,
    "objectID": "1386"
  },
  {
    "name": "Doha Intl",
    "city": "Doha",
    "country": "Qatar",
    "iata_code": "DOH",
    "_geoloc": {
      "lat": 25.261125,
      "lng": 51.565056
    },
    "links_count": 377,
    "objectID": "2241"
  },
  {
    "name": "Johannesburg Intl",
    "city": "Johannesburg",
    "country": "South Africa",
    "iata_code": "JNB",
    "_geoloc": {
      "lat": -26.139166,
      "lng": 28.246
    },
    "links_count": 321,
    "objectID": "813"
  },
  {
    "name": "Helsinki Vantaa",
    "city": "Helsinki",
    "country": "Finland",
    "iata_code": "HEL",
    "_geoloc": {
      "lat": 60.317222,
      "lng": 24.963333
    },
    "links_count": 320,
    "objectID": "421"
  },
  {
    "name": "La Guardia",
    "city": "New York",
    "country": "United States",
    "iata_code": "LGA",
    "_geoloc": {
      "lat": 40.777245,
      "lng": -73.872608
    },
    "links_count": 316,
    "objectID": "3697"
  },
  {
    "name": "Brisbane Intl",
    "city": "Brisbane",
    "country": "Australia",
    "iata_code": "BNE",
    "_geoloc": {
      "lat": -27.384167,
      "lng": 153.1175
    },
    "links_count": 296,
    "objectID": "3320"
  },
  {
    "name": "Melbourne Intl",
    "city": "Melbourne",
    "country": "Australia",
    "iata_code": "MEL",
    "_geoloc": {
      "lat": -37.673333,
      "lng": 144.843333
    },
    "links_count": 269,
    "objectID": "3339"
  },
  {
    "name": "Honolulu Intl",
    "city": "Honolulu",
    "country": "United States",
    "iata_code": "HNL",
    "_geoloc": {
      "lat": 21.318681,
      "lng": -157.922428
    },
    "links_count": 233,
    "objectID": "3728"
  },
  {
    "name": "Galeao Antonio Carlos Jobim",
    "city": "Rio De Janeiro",
    "country": "Brazil",
    "iata_code": "GIG",
    "_geoloc": {
      "lat": -22.808903,
      "lng": -43.243647
    },
    "links_count": 194,
    "objectID": "2560"
  },
  {
    "name": "Perth Intl",
    "city": "Perth",
    "country": "Australia",
    "iata_code": "PER",
    "_geoloc": {
      "lat": -31.940278,
      "lng": 115.966944
    },
    "links_count": 182,
    "objectID": "3351"
  },
  {
    "name": "Cairns Intl",
    "city": "Cairns",
    "country": "Australia",
    "iata_code": "CNS",
    "_geoloc": {
      "lat": -16.885833,
      "lng": 145.755278
    },
    "links_count": 110,
    "objectID": "3322"
  },
  {
    "name": "Adelaide Intl",
    "city": "Adelaide",
    "country": "Australia",
    "iata_code": "ADL",
    "_geoloc": {
      "lat": -34.945,
      "lng": 138.530556
    },
    "links_count": 102,
    "objectID": "3341"
  },
  {
    "name": "Darwin Intl",
    "city": "Darwin",
    "country": "Australia",
    "iata_code": "DRW",
    "_geoloc": {
      "lat": -12.4083333,
      "lng": 130.87266
    },
    "links_count": 90,
    "objectID": "3999"
  },
  {
    "name": "Gold Coast",
    "city": "Coolangatta",
    "country": "Australia",
    "iata_code": "OOL",
    "_geoloc": {
      "lat": -28.164444,
      "lng": 153.504722
    },
    "links_count": 56,
    "objectID": "3321"
  },
  {
    "name": "Canberra",
    "city": "Canberra",
    "country": "Australia",
    "iata_code": "CBR",
    "_geoloc": {
      "lat": -35.306944,
      "lng": 149.195
    },
    "links_count": 26,
    "objectID": "3355"
  },
  {
    "name": "Hobart",
    "city": "Hobart",
    "country": "Australia",
    "iata_code": "HBA",
    "_geoloc": {
      "lat": -42.836111,
      "lng": 147.510278
    },
    "links_count": 18,
    "objectID": "3336"
  }
]